[
   {
      "title": "Rio de Janeiro",
      "latitude": -22.9068,
      "longitude": -43.1729,
      "info": "Famous for its Carnival festival.",
      "region": "southeast",
      "suffix": "Rio_de_Janeiro"
   },
   {
      "title": "São Paulo",
      "latitude": -23.5505,
      "longitude": -46.6333,
      "info": "Largest city in Brazil.",
      "region": "southeast",
      "suffix": "São_Paulo"
   },
   {
      "title": "Brasília",
      "latitude": -15.7942,
      "longitude": -47.8822,
      "info": "Capital of Brazil since 1960.",
      "region": "centralWest",
      "suffix": "Brasília"
   },
   {
      "title": "Salvador",
      "latitude": -12.9714,
      "longitude": -38.5014,
      "info": "Known for its Portuguese colonial architecture.",
      "region": "northeast",
      "suffix": "Salvador,_Bahia"
   },
   {
      "title": "Fortaleza",
      "latitude": -3.7172,
      "longitude": -38.5434,
      "info": "Has one of the largest Carnival celebrations in Brazil.",
      "region": "northeast",
      "suffix": "Fortaleza"
   },
   {
      "title": "Belo Horizonte",
      "latitude": -19.9167,
      "longitude": -43.9345,
      "info": "First modern Brazilian city to be planned and built.",
      "region": "southeast",
      "suffix": "Belo_Horizonte"
   },
   {
      "title": "Manaus",
      "latitude": -3.119,
      "longitude": -60.0217,
      "info": "Gateway to the Amazon Rainforest.",
      "region": "north",
      "suffix": "Manaus"
   },
   {
      "title": "Curitiba",
      "latitude": -25.4284,
      "longitude": -49.2733,
      "info": "Known for its innovative urban planning.",
      "region": "south",
      "suffix": "Curitiba"
   },
   {
      "title": "Recife",
      "latitude": -8.0476,
      "longitude": -34.877,
      "info": "Called the 'Venice of Brazil' for its many rivers and bridges.",
      "region": "northeast",
      "suffix": "Recife"
   },
   {
      "title": "Porto Alegre",
      "latitude": -30.0346,
      "longitude": -51.2177,
      "info": "Famous for its rich cultural life and Gaucho traditions.",
      "region": "south",
      "suffix": "Porto_Alegre"
   },
   {
      "title": "Goiânia",
      "latitude": -16.6869,
      "longitude": -49.2648,
      "info": "One of the best-planned cities in Brazil.",
      "region": "centralWest",
      "suffix": "Goiânia"
   },
   {
      "title": "Belém",
      "latitude": -1.4558,
      "longitude": -48.4902,
      "info": "Known for its colonial architecture and the Círio de Nazaré festival.",
      "region": "north",
      "suffix": "Belém"
   },
   {
      "title": "Cuiabá",
      "latitude": -15.601,
      "longitude": -56.0979,
      "info": "Gateway to the Pantanal, the world's largest tropical wetland.",
      "region": "centralWest",
      "suffix": "Cuiabá"
   },
   {
      "title": "Natal",
      "latitude": -5.7945,
      "longitude": -35.211,
      "info": "Known for its beautiful beaches and sand dunes.",
      "region": "northeast",
      "suffix": "Natal,_Rio_Grande_do_Norte"
   },
   {
      "title": "Teresina",
      "latitude": -5.0892,
      "longitude": -42.8019,
      "info": "Only inland capital in the Brazilian Northeast.",
      "region": "northeast",
      "suffix": "Teresina"
   },
   {
      "title": "João Pessoa",
      "latitude": -7.115,
      "longitude": -34.8641,
      "info": "Easternmost city in the Americas.",
      "region": "northeast",
      "suffix": "João_Pessoa,_Paraíba"
   },
   {
      "title": "Maceió",
      "latitude": -9.6658,
      "longitude": -35.735,
      "info": "Known for its clear water beaches.",
      "region": "northeast",
      "suffix": "Maceió"
   },
   {
      "title": "Aracaju",
      "latitude": -10.9472,
      "longitude": -37.0731,
      "info": "Considered one of the best cities to live in Brazil.",
      "region": "northeast",
      "suffix": "Aracaju"
   },
   {
      "title": "Palmas",
      "latitude": -10.1844,
      "longitude": -48.3336,
      "info": "Youngest state capital in Brazil, founded in 1989.",
      "region": "north",
      "suffix": "Palmas,_Tocantins"
   },
   {
      "title": "Macapá",
      "latitude": 0.0349,
      "longitude": -51.0694,
      "info": "Located right on the Equator.",
      "region": "north",
      "suffix": "Macapá"
   },
   {
      "title": "Rio Branco",
      "latitude": -9.9747,
      "longitude": -67.8243,
      "info": "Largest city in the state of Acre.",
      "region": "north",
      "suffix": "Rio_Branco,_Acre"
   },
   {
      "title": "Porto Velho",
      "latitude": -8.7608,
      "longitude": -63.8999,
      "info": "Serves as an important transport hub in the region.",
      "region": "north",
      "suffix": "Porto_Velho"
   },
   {
      "title": "São Luís",
      "latitude": -2.5387,
      "longitude": -44.2829,
      "info": "Known for its colonial Portuguese architecture.",
      "region": "northeast",
      "suffix": "São_Luís,_Maranhão"
   },
   {
      "title": "Boa Vista",
      "latitude": 2.8235,
      "longitude": -60.6758,
      "info": "Only Brazilian capital north of the Equator.",
      "region": "north",
      "suffix": "Boa_Vista,_Roraima"
   },
   {
      "title": "Florianópolis",
      "latitude": -27.5954,
      "longitude": -48.548,
      "info": "Island city known for its beaches and surf spots.",
      "region": "south",
      "suffix": "Florianópolis"
   },
   {
      "title": "Campo Grande",
      "latitude": -20.4697,
      "longitude": -54.6201,
      "info": "Known for its green spaces and parks.",
      "region": "centralWest",
      "suffix": "Campo_Grande"
   },
   {
      "title": "Vitória",
      "latitude": -20.3155,
      "longitude": -40.3128,
      "info": "Located on a small island within a bay.",
      "region": "southeast",
      "suffix": "Vitória,_Espírito_Santo"
   }
]
